{"businesses": 
    [
        {"id": "cqrir4Q-dYrGP9YFtyiEpg", "alias": "equinox-brooklyn-heights-brooklyn", "name": "Equinox Brooklyn Heights", "image_url": "https://s3-media3.fl.yelpcdn.com/bphoto/JHbEMH3vc5Vpe--wWzAuwA/o.jpg", "is_closed": false, "url": "https://www.yelp.com/biz/equinox-brooklyn-heights-brooklyn?adjust_creative=cWz0fZXwLWydt-AmW7oX9A&utm_campaign=yelp_api_v3&utm_medium=api_v3_business_search&utm_source=cWz0fZXwLWydt-AmW7oX9A", "review_count": 107, "categories": [{"alias": "gyms", "title": "Gyms"}, {"alias": "spas", "title": "Day Spas"}, {"alias": "sports_clubs", "title": "Sports Clubs"}], "rating": 3.0, "coordinates": {"latitude": 40.6925, "longitude": -73.99141}, "transactions": [], "price": "$$$", "location": {"address1": "194 Joralemon St", "address2": null, "address3": "", "city": "Brooklyn", "zip_code": "11201", "country": "US", "state": "NY", "display_address": ["194 Joralemon St", "Brooklyn, NY 11201"]}, "phone": "+17185227533", "display_phone": "(718) 522-7533", "distance": 236.63832109430555}, 
            {"id": "93QbRHjAup3Eq2vGipgi0Q", "alias": "ludlow-fitness-new-york", "name": "Ludlow Fitness", "image_url": "https://s3-media2.fl.yelpcdn.com/bphoto/ylpyvx0zE04hUn8qAI8CdA/o.jpg", "is_closed": false, "url": "https://www.yelp.com/biz/ludlow-fitness-new-york?adjust_creative=cWz0fZXwLWydt-AmW7oX9A&utm_campaign=yelp_api_v3&utm_medium=api_v3_business_search&utm_source=cWz0fZXwLWydt-AmW7oX9A", "review_count": 128, "categories": [{"alias": "gyms", "title": "Gyms"}], "rating": 4.5, "coordinates": {"latitude": 40.719103, "longitude": -73.988672}, "transactions": [], "location": {"address1": "100 Delancey St", "address2": "", "address3": "", "city": "New York", "zip_code": "10002", "country": "US", "state": "NY", "display_address": ["100 Delancey St", "New York, NY 10002"]}, "phone": "+12122609222", "display_phone": "(212) 260-9222", "distance": 2734.946972814413}, 
                {"id": "cyaM9MzkPFnyaYJTSqwN3Q", "alias": "manhattan-athletic-club-brooklyn-brooklyn", "name": "Manhattan Athletic Club - Brooklyn", "image_url": "https://s3-media4.fl.yelpcdn.com/bphoto/nsKnkK9Zb1j3N6ieqQYfOg/o.jpg", "is_closed": false, "url": "https://www.yelp.com/biz/manhattan-athletic-club-brooklyn-brooklyn?adjust_creative=cWz0fZXwLWydt-AmW7oX9A&utm_campaign=yelp_api_v3&utm_medium=api_v3_business_search&utm_source=cWz0fZXwLWydt-AmW7oX9A", "review_count": 23, "categories": [{"alias": "gyms", "title": "Gyms"}, {"alias": "pilates", "title": "Pilates"}], "rating": 4.0, "coordinates": {"latitude": 40.69165, "longitude": -73.985733}, "transactions": [], "location": {"address1": "384 Bridge St", "address2": "5th FL", "address3": "", "city": "Brooklyn", "zip_code": "11201", "country": "US", "state": "NY", "display_address": ["384 Bridge St", "5th FL", "Brooklyn, NY 11201"]}, "phone": "+17188528820", "display_phone": "(718) 852-8820", "distance": 539.7345659959233}, 
                    {"id": "2_RfYqUTaIZoXEbuS7EppA", "alias": "orangetheory-fitness-brooklyn-brooklyn-heights-brooklyn-heights", "name": "Orangetheory Fitness Brooklyn - Brooklyn Heights", "image_url": "https://s3-media2.fl.yelpcdn.com/bphoto/gJplsxP3qYVzLpElf-GO_A/o.jpg", "is_closed": false, "url": "https://www.yelp.com/biz/orangetheory-fitness-brooklyn-brooklyn-heights-brooklyn-heights?adjust_creative=cWz0fZXwLWydt-AmW7oX9A&utm_campaign=yelp_api_v3&utm_medium=api_v3_business_search&utm_source=cWz0fZXwLWydt-AmW7oX9A", "review_count": 20, "categories": [{"alias": "gyms", "title": "Gyms"}, {"alias": "bootcamps", "title": "Boot Camps"}, {"alias": "healthtrainers", "title": "Trainers"}], "rating": 4.0, "coordinates": {"latitude": 40.693835, "longitude": -73.991673}, "transactions": [], "location": {"address1": "186 Montague St", "address2": "Fl 2", "address3": "", "city": "Brooklyn Heights", "zip_code": "11201", "country": "US", "state": "NY", "display_address": ["186 Montague St", "Fl 2", "Brooklyn Heights, NY 11201"]}, "phone": "+19172017013", "display_phone": "(917) 201-7013", "distance": 108.40926179988934}, 
                        {"id": "Nv_FGjrROj3RdCwYrIV_MQ", "alias": "blink-fitness-boerum-hill-brooklyn", "name": "Blink Fitness - Boerum Hill", "image_url": "https://s3-media3.fl.yelpcdn.com/bphoto/2Qx85K2YMHjk1-MgM38uxA/o.jpg", "is_closed": false, "url": "https://www.yelp.com/biz/blink-fitness-boerum-hill-brooklyn?adjust_creative=cWz0fZXwLWydt-AmW7oX9A&utm_campaign=yelp_api_v3&utm_medium=api_v3_business_search&utm_source=cWz0fZXwLWydt-AmW7oX9A", "review_count": 67, "categories": [{"alias": "gyms", "title": "Gyms"}, {"alias": "healthtrainers", "title": "Trainers"}], "rating": 3.0, "coordinates": {"latitude": 40.6886302312429, "longitude": -73.9908717943723}, "transactions": [], "location": {"address1": "252 Atlantic Ave", "address2": "", "address3": "", "city": "Brooklyn", "zip_code": "11201", "country": "US", "state": "NY", "display_address": ["252 Atlantic Ave", "Brooklyn, NY 11201"]}, "phone": "+13479918701", "display_phone": "(347) 991-8701", "distance": 659.6928418912838}, 
                            {"id": "mut-NtsrMsR_B9fXBeUy3w", "alias": "eastern-athletic-clubs-brooklyn-4", "name": "Eastern Athletic Clubs", "image_url": "https://s3-media1.fl.yelpcdn.com/bphoto/IzWce63moGfTpTUPpkC6lw/o.jpg", "is_closed": false, "url": "https://www.yelp.com/biz/eastern-athletic-clubs-brooklyn-4?adjust_creative=cWz0fZXwLWydt-AmW7oX9A&utm_campaign=yelp_api_v3&utm_medium=api_v3_business_search&utm_source=cWz0fZXwLWydt-AmW7oX9A", "review_count": 59, "categories": [{"alias": "gyms", "title": "Gyms"}], "rating": 3.0, "coordinates": {"latitude": 40.69789, "longitude": -73.99432}, "transactions": [], "location": {"address1": "43 Clark St", "address2": "", "address3": "", "city": "Brooklyn", "zip_code": "11201", "country": "US", "state": "NY", "display_address": ["43 Clark St", "Brooklyn, NY 11201"]}, "phone": "+17186250500", "display_phone": "(718) 625-0500", "distance": 462.12683115442724}, 
                                {"id": "5-lxpusTcL7mDzYAgzme2Q", "alias": "greys-gym-brooklyn", "name": "Greys Gym", "image_url": "https://s3-media1.fl.yelpcdn.com/bphoto/9tHBxaAnfX5qdSLOLnU2rw/o.jpg", "is_closed": false, "url": "https://www.yelp.com/biz/greys-gym-brooklyn?adjust_creative=cWz0fZXwLWydt-AmW7oX9A&utm_campaign=yelp_api_v3&utm_medium=api_v3_business_search&utm_source=cWz0fZXwLWydt-AmW7oX9A", "review_count": 13, "categories": [{"alias": "gyms", "title": "Gyms"}], "rating": 4.5, "coordinates": {"latitude": 40.688096, "longitude": -73.965409}, "transactions": [], "location": {"address1": "351 Washington Ave", "address2": "", "address3": "", "city": "Brooklyn", "zip_code": "11238", "country": "US", "state": "NY", "display_address": ["351 Washington Ave", "Brooklyn, NY 11238"]}, "phone": "+19292959797", "display_phone": "(929) 295-9797", "distance": 2261.6837640853123}, 
                                    {"id": "JN0iqiplT5JqDbo_RvvSeA", "alias": "new-york-sports-clubs-brooklyn-9", "name": "New York Sports Clubs", "image_url": "https://s3-media4.fl.yelpcdn.com/bphoto/ezQ3-0SQuYwIoTj5uopQ2A/o.jpg", "is_closed": false, "url": "https://www.yelp.com/biz/new-york-sports-clubs-brooklyn-9?adjust_creative=cWz0fZXwLWydt-AmW7oX9A&utm_campaign=yelp_api_v3&utm_medium=api_v3_business_search&utm_source=cWz0fZXwLWydt-AmW7oX9A", "review_count": 155, "categories": [{"alias": "gyms", "title": "Gyms"}, {"alias": "healthtrainers", "title": "Trainers"}], "rating": 2.0, "coordinates": {"latitude": 40.6932804, "longitude": -73.9911435}, "transactions": [], "location": {"address1": "179 Remsen St", "address2": "", "address3": "", "city": "Brooklyn", "zip_code": "11201", "country": "US", "state": "NY", "display_address": ["179 Remsen St", "Brooklyn, NY 11201"]}, "phone": "+17182460600", "display_phone": "(718) 246-0600", "distance": 144.60665438016974}, 
                                        {"id": "heUQkE9FoeFrZnBMKrimZg", "alias": "chelsea-piers-fitness-brooklyn-brooklyn-3", "name": "Chelsea Piers Fitness - Brooklyn", "image_url": "https://s3-media3.fl.yelpcdn.com/bphoto/YXfPZGOapOHBx3ZqP7zyDA/o.jpg", "is_closed": false, "url": "https://www.yelp.com/biz/chelsea-piers-fitness-brooklyn-brooklyn-3?adjust_creative=cWz0fZXwLWydt-AmW7oX9A&utm_campaign=yelp_api_v3&utm_medium=api_v3_business_search&utm_source=cWz0fZXwLWydt-AmW7oX9A", "review_count": 32, "categories": [{"alias": "gyms", "title": "Gyms"}, {"alias": "yoga", "title": "Yoga"}, {"alias": "swimmingpools", "title": "Swimming Pools"}], "rating": 3.5, "coordinates": {"latitude": 40.6881279010681, "longitude": -73.9832850030411}, "transactions": [], "location": {"address1": "265 Schermerhorn St", "address2": null, "address3": "", "city": "Brooklyn", "zip_code": "11217", "country": "US", "state": "NY", "display_address": ["265 Schermerhorn St", "Brooklyn, NY 11217"]}, "phone": "+17184076400", "display_phone": "(718) 407-6400", "distance": 959.111292472268}, 
                                            {"id": "jUz4Eq36SC_uE6Nv1BiMIQ", "alias": "body-elite-gym-brooklyn-3", "name": "Body Elite Gym", "image_url": "https://s3-media1.fl.yelpcdn.com/bphoto/_ITfLoJp73S4bkbuWwm5yA/o.jpg", "is_closed": false, "url": "https://www.yelp.com/biz/body-elite-gym-brooklyn-3?adjust_creative=cWz0fZXwLWydt-AmW7oX9A&utm_campaign=yelp_api_v3&utm_medium=api_v3_business_search&utm_source=cWz0fZXwLWydt-AmW7oX9A", "review_count": 63, "categories": [{"alias": "gyms", "title": "Gyms"}, {"alias": "healthtrainers", "title": "Trainers"}, {"alias": "yoga", "title": "Yoga"}], "rating": 4.0, "coordinates": {"latitude": 40.6823437827853, "longitude": -73.9960625423279}, "transactions": [], "location": {"address1": "348 Court St", "address2": "", "address3": "", "city": "Brooklyn", "zip_code": "11231", "country": "US", "state": "NY", "display_address": ["348 Court St", "Brooklyn, NY 11231"]}, "phone": "+17189350088", "display_phone": "(718) 935-0088", "distance": 1427.7666328881824}, 
                                                {"id": "0zY166hVI5Z5SqcPL3tfIA", "alias": "equinox-dumbo-brooklyn", "name": "Equinox Dumbo", "image_url": "https://s3-media1.fl.yelpcdn.com/bphoto/G6s4nEHGJIOO0-wuXkZgPQ/o.jpg", "is_closed": false, "url": "https://www.yelp.com/biz/equinox-dumbo-brooklyn?adjust_creative=cWz0fZXwLWydt-AmW7oX9A&utm_campaign=yelp_api_v3&utm_medium=api_v3_business_search&utm_source=cWz0fZXwLWydt-AmW7oX9A", "review_count": 20, "categories": [{"alias": "gyms", "title": "Gyms"}, {"alias": "sports_clubs", "title": "Sports Clubs"}, {"alias": "spas", "title": "Day Spas"}], "rating": 3.5, "coordinates": {"latitude": 40.70259, "longitude": -73.98885}, "transactions": [], "price": "$$$$", "location": {"address1": "117 Front St", "address2": "", "address3": null, "city": "Brooklyn", "zip_code": "11201", "country": "US", "state": "NY", "display_address": ["117 Front St", "Brooklyn, NY 11201"]}, "phone": "+13474352341", "display_phone": "(347) 435-2341", "distance": 917.8126325550679}, 
                                                    {"id": "xUhroSfhUatFW8zCOmcakA", "alias": "planet-fitness-brooklyn-17", "name": "Planet Fitness", "image_url": "https://s3-media1.fl.yelpcdn.com/bphoto/Phq-41dMnCDpIsXN6j4QoA/o.jpg", "is_closed": false, "url": "https://www.yelp.com/biz/planet-fitness-brooklyn-17?adjust_creative=cWz0fZXwLWydt-AmW7oX9A&utm_campaign=yelp_api_v3&utm_medium=api_v3_business_search&utm_source=cWz0fZXwLWydt-AmW7oX9A", "review_count": 21, "categories": [{"alias": "gyms", "title": "Gyms"}, {"alias": "healthtrainers", "title": "Trainers"}], "rating": 3.0, "coordinates": {"latitude": 40.68963, "longitude": -73.99052}, "transactions": [], "location": {"address1": "66 Boerum Pl", "address2": "", "address3": null, "city": "Brooklyn", "zip_code": "11201", "country": "US", "state": "NY", "display_address": ["66 Boerum Pl", "Brooklyn, NY 11201"]}, "phone": "+17189334671", "display_phone": "(718) 933-4671", "distance": 543.0041849760661}, 
                                                        {"id": "QoJkq15vmAbTurjBfcjHpw", "alias": "harbor-fitness-brooklyn-5", "name": "Harbor Fitness", "image_url": "https://s3-media1.fl.yelpcdn.com/bphoto/1wuTfpwQV5dflTC3Bn5Icg/o.jpg", "is_closed": false, "url": "https://www.yelp.com/biz/harbor-fitness-brooklyn-5?adjust_creative=cWz0fZXwLWydt-AmW7oX9A&utm_campaign=yelp_api_v3&utm_medium=api_v3_business_search&utm_source=cWz0fZXwLWydt-AmW7oX9A", "review_count": 166, "categories": [{"alias": "gyms", "title": "Gyms"}, {"alias": "yoga", "title": "Yoga"}, {"alias": "cyclingclasses", "title": "Cycling Classes"}], "rating": 4.5, "coordinates": {"latitude": 40.66566, "longitude": -73.98944}, "transactions": [], "location": {"address1": "550 5th Ave", "address2": "", "address3": "", "city": "Brooklyn", "zip_code": "11215", "country": "US", "state": "NY", "display_address": ["550 5th Ave", "Brooklyn, NY 11215"]}, "phone": "+17189656200", "display_phone": "(718) 965-6200", "distance": 3206.451351249381}, 
                                                            {"id": "t19PGiyf9bY_-CYBLF5qoQ", "alias": "dodge-ymca-brooklyn-2", "name": "Dodge YMCA", "image_url": "https://s3-media2.fl.yelpcdn.com/bphoto/jBbbf7Avtd6QS4G6uwKYww/o.jpg", "is_closed": false, "url": "https://www.yelp.com/biz/dodge-ymca-brooklyn-2?adjust_creative=cWz0fZXwLWydt-AmW7oX9A&utm_campaign=yelp_api_v3&utm_medium=api_v3_business_search&utm_source=cWz0fZXwLWydt-AmW7oX9A", "review_count": 97, "categories": [{"alias": "gyms", "title": "Gyms"}, {"alias": "childcare", "title": "Child Care & Day Care"}], "rating": 3.0, "coordinates": {"latitude": 40.6896389, "longitude": -73.9918026}, "transactions": [], "location": {"address1": "225 Atlantic Ave", "address2": "", "address3": "", "city": "Brooklyn", "zip_code": "11201", "country": "US", "state": "NY", "display_address": ["225 Atlantic Ave", "Brooklyn, NY 11201"]}, "phone": "+12129122400", "display_phone": "(212) 912-2400", "distance": 547.5151914292718}, {"id": "WpqIpFsYiV0EMFRFQNjftg", "alias": "crunch-fitness-ft-greene-brooklyn-2", "name": "Crunch Fitness - Ft Greene", "image_url": "https://s3-media2.fl.yelpcdn.com/bphoto/03CQQuostId6BSQJhRT-bA/o.jpg", "is_closed": false, "url": "https://www.yelp.com/biz/crunch-fitness-ft-greene-brooklyn-2?adjust_creative=cWz0fZXwLWydt-AmW7oX9A&utm_campaign=yelp_api_v3&utm_medium=api_v3_business_search&utm_source=cWz0fZXwLWydt-AmW7oX9A", "review_count": 141, "categories": [{"alias": "gyms", "title": "Gyms"}, {"alias": "healthtrainers", "title": "Trainers"}, {"alias": "yoga", "title": "Yoga"}], "rating": 3.0, "coordinates": {"latitude": 40.68796369, "longitude": -73.97794137}, "transactions": [], "location": {"address1": "691 Fulton St", "address2": "", "address3": "", "city": "Brooklyn", "zip_code": "11217", "country": "US", "state": "NY", "display_address": ["691 Fulton St", "Brooklyn, NY 11217"]}, "phone": "+17187979464", "display_phone": "(718) 797-9464", "distance": 1313.3197150874967}, 
                                                                {"id": "y-P3lXM-n1-O5GL-C04e7g", "alias": "sevenbell-fitness-brooklyn", "name": "SevenBell Fitness", "image_url": "https://s3-media1.fl.yelpcdn.com/bphoto/jOjfW3_UxRE4c-Kxfwvx0Q/o.jpg", "is_closed": false, "url": "https://www.yelp.com/biz/sevenbell-fitness-brooklyn?adjust_creative=cWz0fZXwLWydt-AmW7oX9A&utm_campaign=yelp_api_v3&utm_medium=api_v3_business_search&utm_source=cWz0fZXwLWydt-AmW7oX9A", "review_count": 54, "categories": [{"alias": "gyms", "title": "Gyms"}, {"alias": "healthtrainers", "title": "Trainers"}, {"alias": "boxing", "title": "Boxing"}], "rating": 5.0, "coordinates": {"latitude": 40.6802836, "longitude": -73.9691363}, "transactions": [], "location": {"address1": "640 Dean St", "address2": "Fl 3", "address3": "", "city": "Brooklyn", "zip_code": "11238", "country": "US", "state": "NY", "display_address": ["640 Dean St", "Fl 3", "Brooklyn, NY 11238"]}, "phone": "+17188572355", "display_phone": "(718) 857-2355", "distance": 2424.06439009862}, 
                                                                    {"id": "WzFLaf_59vDo-5P1Xyn3-A", "alias": "gleasons-gym-brooklyn-7", "name": "Gleason's Gym", "image_url": "https://s3-media4.fl.yelpcdn.com/bphoto/zjd7NnRRVC3N7EYYZw8EHQ/o.jpg", "is_closed": false, "url": "https://www.yelp.com/biz/gleasons-gym-brooklyn-7?adjust_creative=cWz0fZXwLWydt-AmW7oX9A&utm_campaign=yelp_api_v3&utm_medium=api_v3_business_search&utm_source=cWz0fZXwLWydt-AmW7oX9A", "review_count": 25, "categories": [{"alias": "gyms", "title": "Gyms"}, {"alias": "boxing", "title": "Boxing"}, {"alias": "healthtrainers", "title": "Trainers"}], "rating": 5.0, "coordinates": {"latitude": 40.7030527, "longitude": -73.9887299}, "transactions": [], "location": {"address1": "130 Water St", "address2": "", "address3": "", "city": "Brooklyn", "zip_code": "11201", "country": "US", "state": "NY", "display_address": ["130 Water St", "Brooklyn, NY 11201"]}, "phone": "+17187972872", "display_phone": "(718) 797-2872", "distance": 948.1580974415248}, 
                                                                        {"id": "DzlmPGxCg3wRyGJiNoSFow", "alias": "gym-nyc-new-york", "name": "GYM NYC", "image_url": "https://s3-media1.fl.yelpcdn.com/bphoto/5opR6GP8cKUorSdD2HXgfg/o.jpg", "is_closed": false, "url": "https://www.yelp.com/biz/gym-nyc-new-york?adjust_creative=cWz0fZXwLWydt-AmW7oX9A&utm_campaign=yelp_api_v3&utm_medium=api_v3_business_search&utm_source=cWz0fZXwLWydt-AmW7oX9A", "review_count": 27, "categories": [{"alias": "gyms", "title": "Gyms"}, {"alias": "healthtrainers", "title": "Trainers"}], "rating": 4.5, "coordinates": {"latitude": 40.722571, "longitude": -73.9962}, "transactions": [], "location": {"address1": "227 Mulberry St", "address2": "", "address3": null, "city": "New York", "zip_code": "10012", "country": "US", "state": "NY", "display_address": ["227 Mulberry St", "New York, NY 10012"]}, "phone": "+16466784723", "display_phone": "(646) 678-4723", "distance": 3146.7034421988137}, 
                                                                            {"id": "y7VrHbIefIIdzQcxAktNqw", "alias": "form-fitness-brooklyn", "name": "Form Fitness", "image_url": "https://s3-media2.fl.yelpcdn.com/bphoto/iY7ZlU0tFDYsIRhSNyIFcQ/o.jpg", "is_closed": false, "url": "https://www.yelp.com/biz/form-fitness-brooklyn?adjust_creative=cWz0fZXwLWydt-AmW7oX9A&utm_campaign=yelp_api_v3&utm_medium=api_v3_business_search&utm_source=cWz0fZXwLWydt-AmW7oX9A", "review_count": 1, "categories": [{"alias": "gyms", "title": "Gyms"}, {"alias": "healthtrainers", "title": "Trainers"}], "rating": 5.0, "coordinates": {"latitude": 40.69294, "longitude": -73.99097}, "transactions": [], "location": {"address1": "32 Court St", "address2": null, "address3": "", "city": "Brooklyn", "zip_code": "11201", "country": "US", "state": "NY", "display_address": ["32 Court St", "Brooklyn, NY 11201"]}, "phone": "+19148298263", "display_phone": "(914) 829-8263", "distance": 179.5712113982214}, 
                                                                                {"id": "ypeRKaFOXoO8QuzAmmoPVg", "alias": "completebody-new-york-2", "name": "CompleteBody", "image_url": "https://s3-media2.fl.yelpcdn.com/bphoto/aq6KpieENnaeCh7QhuGlUQ/o.jpg", "is_closed": false, "url": "https://www.yelp.com/biz/completebody-new-york-2?adjust_creative=cWz0fZXwLWydt-AmW7oX9A&utm_campaign=yelp_api_v3&utm_medium=api_v3_business_search&utm_source=cWz0fZXwLWydt-AmW7oX9A", "review_count": 111, "categories": [{"alias": "healthtrainers", "title": "Trainers"}, {"alias": "gyms", "title": "Gyms"}, {"alias": "juicebars", "title": "Juice Bars & Smoothies"}], "rating": 4.0, "coordinates": {"latitude": 40.704360666845, "longitude": -74.0088620416641}, "transactions": ["delivery", "pickup"], "price": "$$$", "location": {"address1": "10 Hanover Sq", "address2": "", "address3": "", "city": "New York", "zip_code": "10005", "country": "US", "state": "NY", "display_address": ["10 Hanover Sq", "New York, NY 10005"]}, "phone": "+12127777702", "display_phone": "(212) 777-7702", "distance": 1868.1545338369872}
                                                                                ]
                                                                                
                                                                                }